,country,lat,lon,humidity,cloudiness,wind speed,max temp,city
0,AU,-20.73,139.5,94,90,5.82,71.6,mount isa
1,CL,-23.65,-70.4,82,75,14.99,59.0,antofagasta
2,US,37.8,-89.03,54,40,16.11,82.4,herrin
3,TO,-21.2,-175.2,73,40,8.05,77.0,vaini
4,PT,38.52,-28.7,82,75,9.17,62.6,ribeira grande
5,US,42.6,-73.97,69,59,2.37,69.01,albany
6,ZA,-33.01,17.94,82,56,4.7,59.0,saldanha
7,AU,-34.73,135.87,92,100,22.32,59.31,port lincoln
8,NE,18.69,12.92,15,0,8.88,82.81,bilma
9,US,22.08,-159.32,69,40,11.41,82.4,kapaa
10,CA,62.46,-114.35,73,75,8.05,26.01,yellowknife
11,PF,-16.48,-151.75,75,5,9.84,78.98,faanui
12,AU,-33.65,115.33,66,0,10.22,51.01,busselton
13,CL,-53.15,-70.92,50,0,14.99,53.6,punta arenas
14,NC,-20.23,164.02,76,70,13.65,76.96,poum
15,NO,59.28,5.31,81,100,16.11,50.0,kopervik
16,CA,60.72,-135.05,85,75,4.7,14.0,whitehorse
17,NG,6.2,6.73,92,100,5.48,76.59,asaba
18,US,42.1,-79.24,77,75,4.52,69.8,jamestown
19,SE,56.05,12.69,85,69,8.01,55.0,helsingborg
20,CK,-21.21,-159.78,83,99,13.87,77.0,avarua
21,SJ,78.22,15.64,78,20,6.93,17.6,longyearbyen
22,ID,1.74,98.78,76,100,2.68,76.37,sibolga
23,GH,4.87,-2.24,89,0,8.21,77.97,axim
24,ZA,-33.92,25.57,94,4,11.41,68.0,port elizabeth
25,PF,-23.12,-134.97,79,100,14.45,74.41,rikitea
26,PF,-9.8,-139.03,72,25,16.87,78.01,atuona
27,RU,59.96,40.19,95,100,12.84,34.74,kharovsk
28,IL,31.61,34.76,69,0,4.7,73.4,gat
29,GH,6.21,-1.66,99,68,2.26,72.59,obuasi
30,JP,26.18,127.76,88,75,29.97,71.6,nishihara
31,JP,35.73,140.83,100,75,8.05,63.0,hasaki
32,ES,28.66,-17.92,60,0,6.93,68.0,los llanos de aridane
33,IN,10.57,72.64,78,75,16.55,80.2,kavaratti
34,MU,-20.34,57.76,94,75,2.24,71.6,bambous virieux
35,CA,69.45,-133.04,92,90,17.22,23.0,tuktoyaktuk
36,BR,-21.64,-41.05,73,40,18.34,77.0,sao joao da barra
37,ZA,-33.93,18.42,93,0,13.87,64.0,cape town
38,BR,-30.18,-50.21,86,98,24.63,65.68,cidreira
39,NC,-20.57,164.28,65,65,3.04,77.81,koumac
40,PT,32.67,-17.1,63,20,3.36,66.2,ponta do sol
41,US,46.21,-119.14,34,1,4.7,55.4,kennewick
42,US,64.84,-147.72,78,1,3.36,26.01,fairbanks
43,BW,-21.28,25.37,31,0,15.46,78.66,orapa
44,BB,13.22,-59.52,70,75,14.99,86.0,bathsheba
45,CA,55.74,-97.86,63,90,11.41,30.2,thompson
46,MU,-20.41,57.7,94,75,2.24,71.6,mahebourg
47,AR,-54.8,-68.3,57,40,23.04,48.2,ushuaia
48,MV,-0.6,73.08,75,13,15.73,83.07,hithadhoo
49,GL,77.48,-69.36,94,100,1.57,18.19,qaanaaq
50,NA,-21.43,15.93,56,81,3.94,62.02,omaruru
51,FI,66.71,27.43,97,100,4.76,36.64,kemijarvi
52,TR,40.05,42.17,53,0,1.34,46.87,horasan
53,AR,-38.55,-58.74,79,89,11.01,59.0,necochea
54,EC,-0.74,-90.35,69,20,25.28,80.6,puerto ayora
55,AR,-38.0,-57.56,100,90,14.99,55.0,mar del plata
56,AU,-42.78,147.06,83,31,1.01,55.0,new norfolk
57,US,57.05,-135.33,38,40,9.17,39.2,sitka
58,RU,62.14,117.63,97,100,9.93,29.25,suntar
59,AU,-37.83,140.77,93,90,5.82,53.6,mount gambier
60,MU,-19.98,57.61,79,0,1.99,70.0,cap malheureux
61,LK,8.57,81.23,78,89,18.52,80.85,trincomalee
62,ID,-6.26,107.07,78,98,6.93,80.01,tambun
63,ES,39.89,4.27,83,0,5.82,69.8,mao
64,HK,22.29,114.16,46,100,13.0,71.01,victoria
65,RU,52.17,109.77,95,0,1.7,26.53,khorinsk
66,VU,-13.88,167.55,100,90,2.24,75.2,sola
67,NU,-19.06,-169.92,78,75,13.87,80.6,alofi
68,RU,73.51,80.55,96,88,3.06,24.57,dikson
69,RU,71.92,114.08,93,93,11.65,3.69,saskylakh
70,CA,48.93,-125.55,71,75,8.05,52.0,ucluelet
71,MX,19.93,-105.25,73,63,9.08,87.12,tomatlan
72,US,20.89,-156.47,51,1,8.05,86.0,kahului
73,GB,51.24,-0.57,93,0,4.7,53.01,guildford
74,UY,-33.7,-53.46,85,100,14.81,60.31,chuy
75,MR,20.5,-10.07,15,0,4.56,87.4,adrar
76,CL,-37.62,-73.65,75,99,11.79,52.74,lebu
77,MX,22.89,-109.91,59,5,11.41,93.2,cabo san lucas
78,VU,-19.55,169.27,88,90,5.82,78.8,isangel
79,ZA,-34.53,20.04,88,68,4.7,64.4,bredasdorp
80,US,71.29,-156.79,97,90,11.41,33.8,barrow
81,CN,28.96,118.87,77,0,3.6,51.67,quzhou
82,GL,65.61,-37.64,51,100,32.21,37.4,tasiilaq
83,GF,4.93,-52.33,70,68,6.93,86.0,cayenne
84,MG,-25.17,45.05,72,0,12.26,71.64,beloha
85,US,19.73,-155.09,55,75,10.29,87.8,hilo
86,RU,59.57,150.8,90,99,11.95,30.69,magadan
87,NZ,-46.6,168.33,70,100,8.63,53.28,bluff
88,IN,12.05,75.35,95,100,2.1,74.35,talipparamba
89,RU,50.68,156.12,81,96,10.33,43.0,severo-kurilsk
90,SE,67.86,20.23,100,100,3.36,21.2,kiruna
91,AU,-24.87,113.63,88,0,14.99,66.2,carnarvon
92,ZA,-33.59,26.89,91,0,12.97,66.85,port alfred
93,AU,-42.88,147.33,76,40,5.82,55.0,hobart
94,CA,52.78,-108.28,58,75,14.99,26.6,north battleford
95,NC,-22.67,167.48,87,100,15.86,73.72,vao
96,CA,63.75,-68.51,79,75,4.7,28.4,iqaluit
97,NZ,-46.13,167.68,64,100,6.26,54.36,tuatapere
98,RU,68.05,39.51,95,100,13.58,30.42,ostrovnoy
99,RU,61.09,40.86,96,100,10.36,31.3,podyuga
100,CA,60.82,-115.8,79,90,13.87,26.6,hay river
101,RU,63.05,179.32,85,29,14.45,38.68,beringovskiy
102,BR,-14.09,-46.37,50,100,4.41,81.09,posse
103,BJ,6.5,2.6,88,40,11.41,80.6,porto novo
104,KZ,51.1,66.32,88,6,10.09,30.29,derzhavinsk
105,ID,-9.11,124.89,83,42,1.14,74.3,atambua
106,NZ,-45.87,170.5,75,85,4.0,57.99,dunedin
107,RU,71.69,128.87,93,74,7.29,8.28,tiksi
108,AU,-33.87,121.9,100,90,9.44,53.6,esperance
109,AU,-31.95,141.43,56,97,6.93,68.0,broken hill
110,US,36.46,-77.65,94,40,3.94,77.0,roanoke rapids
111,RU,68.75,161.3,93,100,2.93,16.75,cherskiy
112,BR,-22.97,-42.03,64,20,14.99,75.2,arraial do cabo
113,KZ,47.97,80.44,76,100,8.03,37.94,ayagoz
114,RU,64.9,45.76,97,96,6.55,27.59,leshukonskoye
115,ID,-7.95,110.28,87,3,4.47,76.73,bambanglipuro
116,LY,30.33,10.85,35,0,14.29,72.48,nalut
117,CN,38.42,77.24,41,0,7.0,47.44,shache
118,BR,-1.83,-44.87,83,66,4.25,79.18,cururupu
119,GY,8.2,-59.78,80,100,3.94,79.81,mabaruma
120,BR,-23.35,-52.1,44,76,9.82,82.98,mandaguacu
121,ZA,-34.42,19.23,88,22,7.0,63.0,hermanus
122,BR,-26.08,-53.05,52,23,2.89,80.74,francisco beltrao
123,RU,64.38,-173.3,69,40,17.9,39.2,provideniya
124,US,39.15,-123.21,20,1,4.97,84.99,ukiah
125,MX,17.96,-102.2,75,100,8.08,84.83,lazaro cardenas
126,CL,-41.47,-72.94,58,0,9.17,59.0,puerto montt
127,MR,20.93,-17.03,69,0,16.11,73.4,nouadhibou
128,ML,20.2,1.01,12,0,12.41,87.58,tessalit
129,ML,14.67,-4.0,65,0,8.03,82.4,mopti
130,MU,-20.52,57.52,94,75,2.24,71.6,souillac
131,RE,-21.36,55.77,68,0,3.36,71.6,saint-philippe
132,SN,12.48,-16.55,83,0,2.24,84.2,oussouye
133,UZ,40.43,71.72,66,90,1.68,51.8,komsomolskiy
134,NZ,-46.19,168.86,56,92,3.44,57.72,mataura
135,KM,-11.38,43.28,77,2,5.91,79.95,mitsamiouli
136,RU,50.15,48.57,69,90,7.09,41.04,aleksandrov gay
137,RU,69.7,170.31,96,0,17.92,29.3,pevek
138,AU,-17.0,145.43,88,40,1.12,75.0,mareeba
139,AU,-28.77,114.6,87,0,6.93,50.0,geraldton
140,RU,65.58,-171.0,84,0,7.45,36.43,lavrentiya
141,PE,-11.95,-75.28,45,60,7.74,61.86,san jeronimo
142,MT,35.83,14.47,82,0,2.24,64.0,zurrieq
143,BR,-21.74,-44.31,81,1,8.88,65.1,andrelandia
144,AU,-38.27,141.97,96,100,3.51,53.69,codrington
145,ID,-3.32,114.59,100,90,9.17,71.6,banjarmasin
146,IT,46.62,10.7,93,40,8.05,52.0,lasa
147,CA,65.28,-126.83,92,20,2.24,21.2,norman wells
148,RU,59.12,159.97,89,0,4.65,34.43,palana
149,IN,20.77,78.17,62,0,3.74,72.28,dattapur
150,US,38.81,-94.53,51,75,17.22,82.4,belton
151,ZA,-23.3,30.72,67,0,8.3,71.55,giyani
152,US,55.34,-131.65,56,75,8.05,42.8,ketchikan
153,US,42.16,-72.33,53,20,1.3,77.0,palmer
154,CL,-29.95,-71.34,82,75,11.41,55.4,coquimbo
155,MZ,-23.86,35.35,73,75,7.63,72.82,maxixe
156,US,40.3,-74.17,93,90,4.7,70.0,monmouth
157,AF,33.35,64.42,77,0,4.54,27.75,taywarah
158,RU,49.58,111.98,92,0,2.19,27.3,kyra
159,RO,46.43,26.4,70,0,5.66,52.0,asau
160,CD,-2.17,16.23,85,100,1.92,74.91,bolobo
161,RU,66.32,-179.17,95,40,3.94,28.18,egvekinot
162,GL,69.22,-51.1,73,88,17.22,24.8,ilulissat
163,NZ,-35.17,173.17,85,74,7.02,63.86,ahipara
164,ZW,-18.37,26.5,28,0,7.31,80.31,hwange
165,PG,-2.02,147.27,76,3,8.59,81.82,lorengau
166,CA,44.08,-80.2,87,90,5.82,51.01,shelburne
167,AR,-22.52,-63.8,42,97,4.68,87.8,tartagal
168,KI,3.07,172.79,79,39,14.05,81.64,butaritari
169,ID,-2.68,111.62,96,0,1.41,74.32,pangkalanbuun
170,RU,69.3,139.9,89,0,2.1,-0.4,deputatskiy
171,US,34.64,-120.46,72,90,6.93,66.2,lompoc
172,PE,-12.12,-73.0,41,1,5.32,87.6,pangoa
173,RU,59.43,56.68,66,100,7.47,19.0,usolye
174,MX,21.23,-86.73,79,75,4.7,84.2,isla mujeres
175,TD,14.53,20.92,13,8,10.25,85.32,biltine
176,ID,-0.87,134.08,73,97,8.01,81.19,manokwari
177,LK,9.4,80.4,80,7,11.92,79.9,kilinochchi
178,MY,1.24,111.46,94,100,1.86,75.2,sri aman
179,US,57.79,-152.41,75,90,28.86,46.4,kodiak
180,US,40.77,-72.85,73,1,6.93,71.6,mastic beach
181,RU,59.38,143.3,92,100,33.8,39.04,okhotsk
182,US,40.8,-124.16,61,0,10.0,69.01,eureka
183,ZA,-34.0,24.73,90,0,1.01,62.01,kruisfontein
184,VE,8.35,-62.65,54,89,8.25,88.77,ciudad guayana
185,GL,61.99,-49.67,84,0,29.62,31.28,paamiut
186,US,33.19,-82.53,61,40,5.82,80.6,avera
187,BR,-28.66,-56.0,55,100,6.46,86.94,sao borja
188,CA,47.67,-52.73,71,75,26.4,55.99,torbay
189,RU,71.97,102.5,91,31,8.03,2.73,khatanga
190,SB,-8.14,159.59,70,78,3.51,82.45,buala
191,US,40.6,-124.16,38,1,16.11,63.0,fortuna
192,RU,65.82,87.98,96,100,8.66,13.68,turukhansk
193,BR,-24.79,-50.01,70,11,9.8,68.29,castro
194,HT,19.45,-72.68,70,40,10.29,84.2,gonaives
195,SN,16.33,-15.0,58,0,5.82,86.0,saint-louis
196,RU,42.43,130.64,66,100,20.04,41.43,khasan
197,BY,52.63,29.73,88,67,9.66,51.13,svetlogorsk
198,CA,49.75,-77.63,100,75,3.36,33.8,matagami
199,TR,40.04,28.41,88,0,6.93,64.4,mustafakemalpasa
200,MX,18.73,-103.68,74,75,8.05,82.4,coahuayana
201,CA,50.7,-127.42,81,75,8.05,46.4,port hardy
202,CA,49.68,-83.67,82,100,2.57,37.0,hearst
203,PG,-2.57,150.8,75,100,13.42,82.63,kavieng
204,AU,-34.58,150.86,92,8,4.0,64.99,flinders
205,IN,20.67,85.6,100,40,3.36,77.0,dhenkanal
206,US,29.94,-89.96,69,20,18.34,82.99,chalmette
207,GL,72.79,-56.15,97,100,9.17,25.23,upernavik
208,ID,5.38,95.96,70,100,3.58,79.86,sigli
209,AU,-24.85,152.35,73,40,9.17,77.0,bundaberg
210,US,29.46,-95.05,74,40,13.87,82.99,dickinson
211,PH,8.0,124.29,89,100,5.99,75.0,marawi
212,JP,35.13,140.3,93,75,2.24,64.4,katsuura
213,RU,45.44,40.58,54,80,3.67,54.0,kropotkin
214,RU,69.38,178.42,92,0,6.35,29.25,leningradskiy
215,RU,50.52,115.13,94,0,1.97,27.19,nizhniy tsasuchey
216,ID,-0.95,100.35,64,100,8.21,79.45,padang
217,BR,-9.88,-56.09,44,92,2.28,90.05,alta floresta
218,RU,69.49,88.4,84,40,11.18,5.0,talnakh
219,RU,49.09,140.25,82,100,4.68,45.01,vanino
220,RU,63.37,47.92,97,30,3.87,18.97,blagoyevo
221,NZ,-46.28,169.85,58,96,4.45,57.79,kaitangata
222,ZA,-33.02,27.91,87,1,15.59,69.22,east london
223,MY,5.41,100.34,83,20,2.24,78.8,georgetown
224,SA,21.43,39.83,22,0,8.16,82.45,mecca
225,UA,52.04,33.95,87,21,11.18,48.15,druzhba
226,AW,12.52,-70.03,70,20,23.04,89.6,oranjestad
227,CL,-41.87,-73.82,54,100,5.82,59.0,ancud
228,ID,-0.58,117.09,96,88,1.74,74.01,loa janan
229,ES,42.25,-2.5,82,0,2.24,57.99,la rioja
230,BR,-1.2,-46.02,92,48,5.19,76.69,carutapera
231,IS,63.44,-20.27,87,99,50.31,44.1,vestmannaeyjar
232,US,33.16,-117.35,56,1,11.41,75.0,carlsbad
233,US,31.42,-103.49,12,1,10.29,95.0,pecos
234,VN,20.96,107.09,64,0,4.7,68.0,hong gai
235,CL,-18.48,-70.3,77,75,14.99,66.99,arica
236,KR,35.85,128.15,61,1,6.93,48.2,masuri
237,AI,18.22,-63.06,79,20,6.93,86.0,the valley
238,BR,-9.67,-35.74,83,0,9.17,77.0,maceio
239,US,38.89,-76.51,88,1,5.82,75.99,mayo
240,US,41.37,-73.41,77,1,9.17,69.8,bethel
241,PT,39.05,-27.98,71,21,11.18,64.9,lagoa
242,IS,64.25,-15.21,73,100,25.34,43.84,hofn
243,RU,50.93,84.76,90,100,4.43,33.33,ust-kan
244,TR,37.51,34.05,55,0,0.76,56.43,eregli
245,IT,45.23,11.46,96,71,2.89,55.0,montagnana
246,US,39.36,-74.42,64,1,8.05,73.99,atlantic city
247,US,40.82,-82.27,57,90,9.17,77.0,ashland
248,LY,29.11,21.29,58,0,8.12,63.84,awjilah
249,ID,-0.95,122.79,68,80,3.15,76.91,luwuk
250,CA,51.26,-80.61,69,90,4.7,37.4,moose factory
251,BR,-2.44,-54.71,70,75,6.93,86.0,santarem
252,PE,-12.6,-69.18,38,74,2.55,94.3,puerto maldonado
253,CV,14.92,-23.51,83,20,18.34,78.8,praia
254,MM,16.49,97.63,91,100,4.76,75.6,mawlamyine
255,NG,8.88,11.37,64,43,4.14,78.91,jalingo
256,US,39.12,-77.56,69,0,3.71,79.0,leesburg
257,GL,60.14,-45.24,84,0,16.13,30.34,nanortalik
258,TR,39.66,35.88,57,0,3.47,53.44,akdagmadeni
259,US,29.95,-91.75,88,90,5.82,82.99,iberia
260,RO,45.87,25.78,57,0,1.63,45.97,sfantu gheorghe
261,TR,40.16,38.09,51,0,1.81,57.51,susehri
262,AU,-20.32,118.57,88,94,8.05,71.6,port hedland
263,ZA,-31.47,19.78,17,100,2.15,77.74,calvinia
264,BR,-2.92,-39.92,79,82,16.15,80.35,itarema
265,CN,35.91,116.31,47,0,4.52,45.84,zhoucheng
266,ML,22.68,-3.98,13,0,6.71,86.65,taoudenni
267,PT,38.73,-27.07,93,75,9.01,64.4,praia da vitoria
268,GR,40.08,21.43,62,0,1.12,51.8,grevena
269,GB,50.39,-3.92,93,24,1.01,55.0,ivybridge
270,RU,70.63,147.92,92,69,9.57,1.87,chokurdakh
271,ET,12.51,39.52,59,28,2.01,54.18,korem
272,ID,-6.54,111.05,80,25,3.22,79.09,tayu
273,PG,-3.67,152.43,71,50,9.57,81.54,namatanai
274,TR,39.09,28.98,62,0,4.68,56.98,simav
275,IN,11.67,92.75,84,100,11.41,80.85,port blair
276,RU,46.54,138.33,75,100,9.6,47.95,svetlaya
277,BR,-17.71,-39.25,83,97,6.38,75.42,caravelas
278,NA,-22.96,14.51,77,0,3.36,62.01,walvis bay
279,PH,12.29,125.24,90,78,1.81,75.85,jipapad
280,US,39.41,-74.36,64,1,8.05,73.4,brigantine
281,US,37.7,-77.61,51,1,3.36,80.6,wyndham
282,RU,50.84,37.29,66,0,11.18,50.0,spornoye
283,JP,39.27,141.88,85,100,5.48,60.93,kamaishi
284,RU,60.42,134.53,94,100,7.2,17.33,ust-maya
285,RU,51.71,143.23,91,100,6.96,46.02,katangli
286,PT,40.16,-8.33,93,18,3.24,57.99,lata
287,TC,21.46,-71.14,78,40,9.17,82.4,cockburn town
288,PT,40.74,-7.73,93,2,2.06,54.0,satao
289,CA,51.23,-58.65,69,58,17.2,40.64,saint-augustin
290,RU,66.83,70.83,97,96,8.86,16.59,yar-sale
291,US,42.25,-75.83,73,1,8.05,70.0,broome
292,NO,62.2,5.58,77,11,4.0,43.0,larsnes
293,AU,-14.25,129.55,75,83,7.29,82.0,port keats
294,PH,18.56,120.79,94,20,3.36,78.8,pagudpud
295,RU,61.28,108.01,81,100,12.57,36.99,yerbogachen
296,SB,-10.45,161.92,79,97,8.7,79.75,kirakira
297,US,39.18,-84.53,51,40,9.17,81.0,hamilton
298,US,37.1,-113.58,14,1,9.95,82.99,saint george
299,NO,70.37,31.11,69,75,29.97,39.2,vardo
300,MG,-24.7,44.75,41,0,7.99,75.33,ampanihy
301,RU,50.72,136.63,95,31,2.15,32.59,solnechnyy
302,CI,5.14,-5.02,89,27,8.46,78.03,grand-lahou
303,IE,54.63,-8.45,91,100,8.99,46.99,killybegs
304,BO,-16.37,-58.4,39,87,4.63,94.64,san matias
305,NO,67.67,12.69,68,20,6.93,32.0,sorland
306,RU,59.97,42.76,94,100,9.22,30.94,totma
307,BR,-14.45,-56.8,34,54,4.21,95.11,nortelandia
308,ID,-3.8,102.27,75,100,3.6,76.15,bengkulu
309,CD,0.81,24.43,98,100,0.54,72.28,yangambi
310,IN,13.22,80.32,94,90,4.7,77.0,kattivakkam
311,GA,-1.57,9.26,87,100,6.22,76.98,omboue
312,CA,60.75,-137.51,79,0,2.51,24.42,haines junction
313,OM,22.93,57.53,26,0,1.79,64.72,nizwa
314,RU,56.21,89.53,85,94,10.2,34.52,bogotol
315,BR,-10.34,-67.19,42,78,0.29,93.06,placido de castro
316,US,37.77,-122.42,52,20,16.11,71.6,san francisco
317,RU,63.46,48.9,97,0,3.31,19.45,koslan
318,RU,60.95,29.13,100,90,4.7,43.0,kamennogorsk
319,UA,49.67,32.04,59,100,8.61,54.86,zolotonosha
320,AR,-31.63,-60.7,54,85,1.99,84.0,santa fe
321,CA,45.13,-74.0,71,100,3.83,55.0,ormstown
322,US,32.22,-98.2,48,40,12.75,84.99,stephenville
323,VC,12.88,-61.18,74,75,4.7,84.2,dovers
324,TH,17.33,104.42,66,79,4.43,63.73,nakhon phanom
325,MN,48.01,91.64,72,19,2.55,34.54,hovd
326,KZ,47.47,84.87,69,23,3.53,44.64,zaysan
327,ES,27.91,-15.54,77,75,13.87,71.01,santa lucia
328,US,43.21,-75.46,72,90,3.36,61.0,roma
329,CA,50.1,-91.92,69,90,3.36,33.8,sioux lookout
330,AU,-14.47,132.27,48,62,4.7,84.2,katherine
331,US,42.17,-71.25,63,1,8.05,69.01,norfolk
332,FR,46.41,4.91,95,100,10.18,60.01,boz
333,ID,-3.37,135.48,79,92,2.77,74.97,nabire
334,AO,-15.2,12.15,83,71,3.78,70.3,namibe
335,AU,-34.47,150.42,92,22,4.0,66.0,bowral
336,HN,15.0,-83.23,71,100,9.06,85.19,iralaya
337,TD,11.03,20.28,40,0,4.61,77.85,am timan
338,IN,26.2,83.97,73,2,4.83,75.27,lar
339,MX,20.51,-86.95,74,40,6.78,86.0,cozumel
340,KH,10.62,104.18,88,20,4.7,77.0,kampot
341,CA,53.83,-101.25,50,75,10.29,30.2,the pas
342,CA,70.47,-68.59,85,20,5.82,10.4,clyde river
343,BR,-7.3,-70.22,99,100,5.5,72.81,envira
344,PA,9.21,-78.88,74,40,5.82,86.0,canita
345,US,44.08,-116.93,22,1,5.91,55.4,payette
346,SO,3.81,43.25,77,96,15.48,77.41,wajid
347,AO,-6.13,12.37,83,98,9.89,77.56,soyo
348,MY,4.95,100.63,88,20,2.48,78.01,simpang empat
349,US,37.46,-122.43,82,40,5.82,79.0,half moon bay
350,RU,67.67,53.09,96,53,9.24,24.93,naryan-mar
351,IN,19.8,85.85,100,40,3.36,77.0,puri
352,FR,44.67,6.0,88,100,4.41,51.01,gap
353,US,64.86,-147.8,67,1,3.36,25.0,college
354,DE,47.68,11.57,85,61,3.89,46.0,lenggries
355,RU,46.49,135.88,99,100,2.19,30.02,vostok
356,RU,59.7,30.79,87,90,4.47,50.0,nikolskoye
357,BW,-20.18,25.23,23,0,17.2,82.06,gweta
358,CN,19.91,109.69,70,100,8.08,71.82,lingao
359,GB,51.07,-1.32,93,0,4.7,54.0,winchester
360,GL,68.71,-52.87,97,69,4.18,19.83,aasiaat
361,FR,48.51,3.73,87,100,12.75,59.0,romilly-sur-seine
362,PW,7.04,134.26,83,90,9.17,78.8,kloulklubed
363,AU,-35.35,150.47,100,0,2.24,62.6,ulladulla
364,MX,27.98,-114.06,58,4,13.15,74.44,guerrero negro
365,US,37.12,-120.26,34,1,5.82,82.4,chowchilla
366,ID,-0.88,131.25,86,0,5.35,78.24,sorong
367,US,34.02,-84.36,61,75,9.17,79.0,roswell
368,BR,-6.41,-48.54,31,76,4.65,94.01,xambioa
369,CD,-7.57,24.18,93,100,1.41,68.02,kaniama
370,KE,-3.86,39.47,83,75,3.36,80.6,mariakani
371,SE,63.29,18.72,95,93,9.17,32.0,ornskoldsvik
372,ID,-6.88,112.21,79,73,3.6,80.37,labuhan
373,PH,12.18,125.51,82,78,2.53,79.57,san policarpo
374,RU,62.1,126.7,95,2,4.61,9.41,berdigestyakh
375,RU,66.03,60.17,98,100,11.07,25.36,inta
376,SO,9.49,50.81,67,57,3.29,79.59,bandarbeyla
377,IS,63.84,-22.43,75,90,27.51,42.8,grindavik
378,US,47.98,-122.2,76,20,4.7,55.0,everett
379,TD,13.22,18.34,12,0,7.18,88.72,ati
380,US,45.67,-118.79,45,1,6.08,51.01,pendleton
381,BR,-13.28,-50.16,43,98,3.33,88.12,sao miguel do araguaia
382,SO,11.28,49.18,51,81,2.39,81.0,bosaso
383,MY,5.41,100.34,83,20,3.18,78.01,george town
384,TL,-8.93,125.41,100,62,1.21,60.58,airai
385,CL,-35.33,-72.42,65,5,14.58,58.98,constitucion
386,FO,62.23,-6.59,75,100,17.22,42.8,klaksvik
387,NC,-21.55,167.88,83,100,12.82,75.81,tadine
388,LK,6.12,81.12,100,0,4.7,77.0,hambantota
389,ID,-0.91,122.88,75,71,3.51,76.35,biak
390,RU,64.75,177.48,56,75,4.47,41.0,anadyr
391,NA,-20.37,14.97,74,46,4.0,58.17,khorixas
392,UZ,39.65,66.96,51,20,4.7,48.2,samarkand
393,ZA,-30.55,29.42,69,0,4.45,60.01,kokstad
394,OM,17.02,54.09,65,0,3.36,78.8,salalah
395,BR,-20.72,-47.89,40,40,10.29,86.0,orlandia
396,PT,39.36,-9.38,85,14,1.01,57.99,peniche
397,IT,45.46,8.01,93,100,0.58,55.0,bose
398,PH,10.88,122.49,86,99,5.53,77.61,cabatuan
399,VN,9.18,105.15,96,100,3.76,74.59,ca mau
400,ZA,-30.74,30.45,87,56,21.94,69.48,port shepstone
401,PH,11.0,122.67,90,93,5.32,76.91,dingle
402,ES,42.78,-9.06,92,26,1.01,57.0,muros
403,VE,8.12,-63.55,44,51,4.94,92.75,ciudad bolivar
404,JP,34.67,138.95,94,100,7.11,59.0,shimoda
405,OM,22.57,59.53,56,0,5.21,73.94,sur
406,SV,13.59,-89.83,65,0,3.36,82.4,acajutla
407,GA,-0.81,12.73,92,100,0.6,73.42,lastoursville
408,NO,71.0,24.66,85,75,21.92,32.0,havoysund
409,KZ,50.41,80.23,62,100,13.62,42.55,semey
410,US,37.78,-121.98,12,1,12.75,82.0,san ramon
411,CM,12.08,15.03,16,0,8.28,87.1,kousseri
412,RU,53.57,142.95,91,100,5.14,42.35,okha
413,PF,-17.73,-149.15,83,75,9.17,77.0,tautira
414,PE,-10.07,-78.15,67,6,10.71,69.78,huarmey
415,NA,-26.65,15.16,82,0,8.84,59.32,luderitz
416,BR,-2.5,-66.27,58,45,1.16,89.74,fonte boa
417,AF,37.04,66.79,33,5,17.22,59.0,qarchi gak
418,AR,-27.8,-64.26,50,100,7.14,82.8,santiago del estero
419,BR,-20.33,-40.29,78,75,10.29,75.2,vila velha
420,BW,-18.37,21.85,20,15,5.03,75.94,shakawe
421,JM,18.4,-77.1,80,100,1.01,84.0,ocho rios
422,RU,56.7,104.25,97,55,7.4,30.58,khrebtovaya
423,AU,-26.53,151.83,93,90,5.82,66.0,kingaroy
424,GB,51.59,-3.0,88,40,2.95,52.0,newport
425,CN,41.12,80.26,44,34,1.28,45.91,aksu
426,IN,27.98,79.73,39,0,2.8,71.76,tilhar
427,PE,-11.85,-76.68,72,75,14.99,66.2,santa eulalia
428,GB,60.15,-1.15,62,95,3.36,37.4,lerwick
429,ZA,-28.78,32.04,81,100,12.68,70.84,richards bay
430,US,21.4,-157.74,74,75,10.29,82.4,kailua
431,BR,-2.76,-42.27,80,93,15.5,81.57,tutoia
432,ZA,-29.66,17.89,51,71,2.44,62.29,springbok
433,RU,55.17,124.72,92,0,3.2,8.26,tynda
434,JP,43.32,145.57,86,100,25.93,59.88,nemuro
435,SE,56.16,15.59,82,0,6.93,55.4,karlskrona
436,EC,0.6,-80.03,74,75,11.41,84.2,muisne
437,BR,-5.29,-44.49,39,16,3.36,87.94,presidente dutra
438,ES,41.61,-4.8,93,40,3.36,54.0,arroyo
439,IN,24.77,82.78,67,14,2.91,70.65,ghorawal
440,PG,-6.22,155.63,73,65,3.96,81.93,kieta
441,AO,-8.84,13.23,83,20,10.29,77.0,luanda
442,US,43.87,-116.5,27,3,1.01,54.0,emmett
443,BW,-24.09,25.03,34,0,8.32,75.67,letlhakeng
444,US,28.02,-97.52,62,40,13.87,87.8,san patricio
445,RU,53.03,43.19,82,99,10.13,40.82,poim
446,KZ,48.59,57.19,90,0,5.1,28.94,shubarshi
447,PT,37.32,-8.8,83,0,8.16,61.12,aljezur
448,MZ,-23.86,35.38,73,81,8.97,73.27,inhambane
449,MV,6.62,73.07,80,86,11.83,81.19,kulhudhuffushi
450,CA,50.14,-96.88,43,75,8.05,36.0,selkirk
451,US,61.22,-149.9,40,1,6.93,37.0,anchorage
452,BR,-4.88,-66.9,67,99,3.13,86.07,carauari
453,CI,5.79,-6.61,98,52,2.73,73.29,soubre
454,ID,-7.75,112.01,84,29,6.11,76.48,gondanglegi
455,RU,57.8,158.67,83,0,3.58,36.28,tigil
456,JP,28.37,129.48,88,75,25.28,71.6,naze
457,GH,4.88,-1.76,90,15,8.34,77.41,takoradi
458,MW,-15.81,35.65,52,5,5.28,68.58,phalombe
459,MX,15.85,-97.07,70,40,4.7,86.0,puerto escondido
460,CD,-5.04,18.82,93,100,0.16,72.54,kikwit
461,CV,14.9,-24.5,77,0,8.59,80.4,sao filipe
462,CA,53.58,-116.44,61,90,3.36,15.8,edson
463,ID,-2.08,101.38,75,100,3.6,66.85,sungaipenuh
464,LR,6.07,-8.13,98,40,3.33,72.57,zwedru
465,BR,-2.15,-56.09,41,15,3.76,89.74,juruti
466,MX,24.83,-104.83,29,31,3.13,76.98,durango
467,BR,-5.79,-35.21,83,40,6.93,78.8,natal
468,SL,8.18,-11.13,98,89,0.63,70.9,panguma
469,PE,-13.7,-76.22,68,0,25.28,68.0,pisco
470,NL,52.96,4.76,82,20,11.41,57.0,den helder
471,BR,-24.8,-53.31,47,13,4.27,75.4,corbelia
472,SS,8.46,25.68,91,100,3.49,70.84,raga
473,IN,27.92,96.17,86,100,2.89,69.94,tezu
474,US,36.68,-121.66,60,1,8.05,68.0,salinas
475,MU,-20.01,57.66,79,0,3.0,70.0,grand gaube
476,CA,68.22,-135.01,92,90,4.7,21.2,aklavik
477,PT,38.7,-9.42,87,76,5.01,61.0,cascais
478,RU,49.0,140.31,78,100,10.8,47.59,lososina
479,AR,-43.3,-65.1,34,0,23.42,72.14,rawson
480,PA,8.32,-81.22,86,100,5.5,78.94,canazas
481,GB,54.28,-0.4,81,14,3.0,46.99,scarborough
482,RU,54.98,82.74,80,0,8.95,35.6,tolmachevo
483,CA,49.12,-85.84,92,90,6.93,33.8,manitouwadge
484,BR,-6.98,-34.83,94,75,5.82,77.0,cabedelo
485,ID,1.49,124.85,94,20,3.42,71.6,manado
486,RU,59.45,112.56,94,100,7.14,30.67,vitim
487,IN,29.85,80.53,40,0,4.54,55.49,dharchula
488,AU,-41.45,147.17,93,40,3.36,52.0,launceston
489,AU,-25.3,152.85,73,40,9.17,77.0,hervey bay
490,KZ,44.83,78.82,73,100,1.05,38.32,tekeli
491,FR,45.55,2.32,33,100,5.01,61.0,ussel
492,IN,14.32,76.65,92,90,8.48,71.04,challakere
493,NA,-22.12,14.28,86,0,1.01,62.01,henties bay
494,IN,16.02,80.92,88,100,5.48,74.34,avanigadda
495,BR,-2.58,-49.51,64,56,3.13,82.36,mocajuba
496,RU,53.09,91.4,76,96,2.86,42.15,sayanogorsk
497,US,41.28,-70.1,68,1,5.82,64.4,nantucket
498,IT,40.92,14.53,87,0,2.24,59.0,nola
499,BR,-9.91,-63.04,65,81,1.43,83.57,ariquemes
500,IN,18.7,76.93,69,7,1.66,70.36,ahmadpur
501,US,36.62,-121.92,68,1,6.93,66.99,pacific grove
502,LY,31.45,12.98,49,0,8.32,62.13,mizdah
503,CA,48.4,-89.32,69,90,8.05,39.2,thunder bay
504,RU,62.0,132.43,95,32,3.44,6.01,churapcha
505,JP,43.93,141.64,84,100,11.79,55.44,rumoi
506,US,37.08,-88.6,51,1,9.17,82.4,paducah
507,TM,39.51,54.37,48,90,3.8,54.86,balkanabat
508,CV,16.89,-24.98,74,20,26.4,80.6,mindelo
509,HN,15.8,-84.28,77,99,9.98,83.1,barra patuca
510,RU,62.17,49.09,97,12,3.24,18.66,yarensk
511,CO,11.38,-72.24,79,94,3.36,84.58,maicao
512,CN,40.28,97.2,82,9,2.98,31.62,yumen
513,SE,61.35,16.39,90,100,7.58,37.53,bollnas
514,US,36.21,-115.98,8,0,1.99,89.01,pahrump
515,NO,70.86,29.09,74,0,13.87,35.6,berlevag
516,RU,55.84,48.25,92,0,6.71,30.2,kozlovka
517,BR,-9.6,-35.96,83,0,9.17,77.0,pilar
518,MX,30.48,-115.95,65,57,9.44,69.13,san quintin
519,US,45.52,-122.68,66,75,8.05,57.0,portland
520,KR,37.57,126.98,57,1,5.82,44.6,seoul
521,PG,-9.08,143.21,80,84,9.53,80.65,daru
522,PK,32.93,72.42,27,0,2.17,64.11,talagang
523,CA,43.75,-81.72,88,100,13.65,55.0,goderich
524,RU,64.57,143.2,91,100,4.88,17.19,ust-nera
525,CA,48.38,-77.23,80,90,3.36,41.0,senneterre
526,CN,18.8,110.4,72,97,14.58,71.92,wanning
527,CA,42.3,-83.02,88,90,5.82,63.0,windsor
528,AU,-23.7,133.88,49,0,5.82,73.4,alice springs
529,GH,5.26,-0.76,89,16,10.29,78.22,mumford
530,BR,-18.56,-51.13,52,81,7.43,83.64,cacu
531,AO,-8.42,20.74,91,89,1.05,68.59,lucapa
532,GA,-0.72,8.78,88,75,9.17,78.8,port-gentil
533,RE,-21.34,55.48,68,0,3.36,71.6,saint-pierre
534,KY,19.28,-81.25,88,20,15.9,82.99,bodden town
535,BW,-21.42,25.58,35,0,14.0,76.05,letlhakane
536,IN,25.52,90.22,96,100,1.86,70.05,tura
537,US,21.35,-158.09,88,90,5.82,82.4,makakilo city
538,RU,56.79,105.77,88,46,4.97,33.85,ust-kut
539,TM,42.06,59.38,72,0,4.7,46.4,akdepe
540,CA,54.77,-101.86,54,90,10.29,30.2,flin flon
541,IN,33.32,75.77,52,0,3.38,47.71,kishtwar
542,BR,-18.68,-49.57,52,66,8.5,82.94,capinopolis
543,DZ,36.37,6.61,42,40,2.24,64.4,constantine
544,US,39.45,-86.18,54,0,8.05,79.0,bud
545,CF,8.41,20.65,88,100,2.98,72.03,ndele
546,ID,-8.47,140.33,81,1,10.29,78.39,merauke
547,JP,24.34,124.16,100,75,16.11,69.8,ishigaki
548,US,40.67,-123.92,38,1,16.11,63.0,humboldt
549,RU,60.06,71.48,99,100,2.68,26.24,salym
550,CO,6.9,-76.17,76,92,2.44,76.05,uramita
551,MX,14.72,-92.42,74,40,10.29,86.0,puerto madero
552,RU,65.98,60.31,98,100,11.72,25.09,verkhnyaya inta
553,NA,-18.06,13.84,50,0,7.58,65.68,opuwo
554,ZA,-28.73,24.76,20,28,1.12,84.2,kimberley
555,IT,38.47,14.95,71,0,4.0,61.0,lipari
556,PG,-2.67,141.3,76,92,2.77,79.34,vanimo
557,CA,47.17,-55.15,100,51,10.0,51.01,marystown
558,NA,-26.58,18.13,33,72,8.55,73.35,keetmanshoop
559,CN,42.8,93.45,42,89,3.62,48.99,hami
